{"type":"FeatureCollection","features":[{"type":"Feature","properties":{"marker-color":"#7e7e7e","marker-size":"medium","marker-symbol":"lighthouse","Name":"Point Roberts Lighthouse Park"},"geometry":{"type":"Point","coordinates":[-123.08361053466795,48.97213263602167]}},{"type":"Feature","properties":{"marker-color":"#7e7e7e","marker-size":"medium","marker-symbol":"park","Name":"San Juan County Park"},"geometry":{"type":"Point","coordinates":[-123.15942049026489,48.54140105463918]}},{"type":"Feature","properties":{"marker-color":"#7e7e7e","marker-size":"medium","marker-symbol":"lighthouse","Name":"Lime Kiln State Park"},"geometry":{"type":"Point","coordinates":[-123.15066576004028,48.51388947360069]}},{"type":"Feature","properties":{"marker-color":"#7e7e7e","marker-size":"medium","marker-symbol":"park","Name":"San Juan Island National Park"},"geometry":{"type":"Point","coordinates":[-123.01177024841309,48.462592234323076]}},{"type":"Feature","properties":{"marker-color":"#7e7e7e","marker-size":"medium","marker-symbol":"museum","Name":"The Whale Museum"},"geometry":{"type":"Point","coordinates":[-123.01725268363953,48.53577490167523]}},{"type":"Feature","properties":{"marker-color":"#7e7e7e","marker-size":"medium","marker-symbol":"park","Name":"Washington Park"},"geometry":{"type":"Point","coordinates":[-122.69797325134277,48.498692014774086]}},{"type":"Feature","properties":{"marker-color":"#7e7e7e","marker-size":"medium","marker-symbol":"park2","Name":"West Beach"},"geometry":{"type":"Point","coordinates":[-122.66467094421385,48.40083028275629]}},{"type":"Feature","properties":{"marker-color":"#7e7e7e","marker-size":"medium","marker-symbol":"city","Name":"Coupeville"},"geometry":{"type":"Point","coordinates":[-122.68741607666016,48.22238534316075]}},{"type":"Feature","properties":{"marker-color":"#7e7e7e","marker-size":"medium","marker-symbol":"park2","Name":"Fort Casey"},"geometry":{"type":"Point","coordinates":[-122.67814636230469,48.15577995903569]}},{"type":"Feature","properties":{"marker-color":"#7e7e7e","marker-size":"medium","marker-symbol":"museum","Name":"Port Townsend Science Center"},"geometry":{"type":"Point","coordinates":[-122.76500701904297,48.136079320834966]}},{"type":"Feature","properties":{"marker-color":"#7e7e7e","marker-size":"medium","marker-symbol":"museum","Name":"Langley Whale Center"},"geometry":{"type":"Point","coordinates":[-122.40968942642212,48.04047558569442]}},{"type":"Feature","properties":{"marker-color":"#7e7e7e","marker-size":"medium","marker-symbol":"park2","Name":"Bush Point"},"geometry":{"type":"Point","coordinates":[-122.60373115539552,48.033674793140484]}},{"type":"Feature","properties":{"marker-color":"#7e7e7e","marker-size":"medium","marker-symbol":"lighthouse","Name":"Point No Point Lighthouse"},"geometry":{"type":"Point","coordinates":[-122.5274920463562,47.91216411751873]}},{"type":"Feature","properties":{"marker-color":"#7e7e7e","marker-size":"medium","marker-symbol":"park2","Name":"Jetty Island"},"geometry":{"type":"Point","coordinates":[-122.22976684570312,48.004223032026125]}},{"type":"Feature","properties":{"marker-color":"#7e7e7e","marker-size":"medium","marker-symbol":"park","Name":"Stamm Overlook Park, Edmonds"},"geometry":{"type":"Point","coordinates":[-122.36186027526855,47.83269067964561]}},{"type":"Feature","properties":{"marker-color":"#7e7e7e","marker-size":"medium","marker-symbol":"park","Name":"Marina Beach Park, Edmonds"},"geometry":{"type":"Point","coordinates":[-122.39447593688963,47.80450785161765]}},{"type":"Feature","properties":{"marker-color":"#7e7e7e","marker-size":"medium","marker-symbol":"park2","Name":"Richmond Beach Saltwater Park"},"geometry":{"type":"Point","coordinates":[-122.38649368286131,47.76459925929889]}},{"type":"Feature","properties":{"marker-color":"#7e7e7e","marker-size":"medium","marker-symbol":"park","Name":"Fay Bainbridge State Park"},"geometry":{"type":"Point","coordinates":[-122.50768661499022,47.70361034559791]}},{"type":"Feature","properties":{"marker-color":"#7e7e7e","marker-size":"medium","marker-symbol":"park","Name":"Alki Beach Park"},"geometry":{"type":"Point","coordinates":[-122.40915298461914,47.580057604494456]}},{"type":"Feature","properties":{"marker-color":"#7e7e7e","marker-size":"medium","marker-symbol":"park2","Name":"Charles Richey Viewpoint, Seattle"},"geometry":{"type":"Point","coordinates":[-122.41679191589354,47.57455701549698]}},{"type":"Feature","properties":{"marker-color":"#7e7e7e","marker-size":"medium","marker-symbol":"park2","Name":"Emma Schmitz Overlook, Seattle"},"geometry":{"type":"Point","coordinates":[-122.40589141845703,47.56361202001994]}},{"type":"Feature","properties":{"marker-color":"#7e7e7e","marker-size":"medium","marker-symbol":"park","Name":"Lincoln Park, Seattle"},"geometry":{"type":"Point","coordinates":[-122.40005493164062,47.53047354699738]}},{"type":"Feature","properties":{"marker-color":"#7e7e7e","marker-size":"medium","marker-symbol":"museum","Name":"The Burke Museum, Seattle"},"geometry":{"type":"Point","coordinates":[-122.31050133705139,47.66143850761449]}},{"type":"Feature","properties":{"marker-color":"#7e7e7e","marker-size":"medium","marker-symbol":"zoo","Name":"Seattle Aquarium"},"geometry":{"type":"Point","coordinates":[-122.3434066772461,47.607725484075466]}},{"type":"Feature","properties":{"marker-color":"#7e7e7e","marker-size":"medium","marker-symbol":"ferry","Name":"Washington State Ferries"},"geometry":{"type":"Point","coordinates":[-122.33937263488771,47.60251716854868]}},{"type":"Feature","properties":{"marker-color":"#7e7e7e","marker-size":"medium","marker-symbol":"park2","Name":"Three Tree Point"},"geometry":{"type":"Point","coordinates":[-122.37876892089842,47.45223707184017]}},{"type":"Feature","properties":{"marker-color":"#7e7e7e","marker-size":"medium","marker-symbol":"park2","Name":"Point Robinson"},"geometry":{"type":"Point","coordinates":[-122.37533569335936,47.388355301990096]}},{"type":"Feature","properties":{"marker-color":"#7e7e7e","marker-size":"medium","marker-symbol":"museum","Name":"MaST - Marine Science and Technology Center"},"geometry":{"type":"Point","coordinates":[-122.32456684112549,47.348477062112785]}},{"type":"Feature","properties":{"marker-color":"#7e7e7e","marker-size":"medium","marker-symbol":"zoo","Name":"Point Defiance Zoo and Aquarium"},"geometry":{"type":"Point","coordinates":[-122.51858711242676,47.30478569858886]}},{"type":"Feature","properties":{"marker-color":"#7e7e7e","marker-size":"medium","marker-symbol":"park","Name":"Dosewallips State Park"},"geometry":{"type":"Point","coordinates":[-122.90250778198242,47.688734733470305]}},{"type":"Feature","properties":{"marker-color":"#7e7e7e","marker-size":"medium","marker-symbol":"zoo","Name":"Feiro Marine Life Center"},"geometry":{"type":"Point","coordinates":[-123.42998027801514,48.12114131321707]}},{"type":"Feature","properties":{"marker-color":"#7e7e7e","marker-size":"medium","marker-symbol":"park","Name":"Freshwater Bay County Park"},"geometry":{"type":"Point","coordinates":[-123.64232540130615,48.146846885734256]}},{"type":"Feature","properties":{"marker-color":"#7e7e7e","marker-size":"medium","marker-symbol":"park","Name":"Salt Creek Recreation Area"},"geometry":{"type":"Point","coordinates":[-123.69532585144042,48.16340906106831]}},{"type":"Feature","properties":{"marker-color":"#7e7e7e","marker-size":"medium","marker-symbol":"park2","Name":"Sekiu Overlook"},"geometry":{"type":"Point","coordinates":[-124.30189132690431,48.262684144612166]}},{"type":"Feature","properties":{"marker-color":"#7e7e7e","marker-size":"medium","marker-symbol":"park2","Name":"Shipwreck Point"},"geometry":{"type":"Point","coordinates":[-124.44782495498657,48.31625234033778]}},{"type":"Feature","properties":{"marker-color":"#7e7e7e","marker-size":"medium","marker-symbol":"park2","Name":"Cape Flattery"},"geometry":{"type":"Point","coordinates":[-124.72643136978151,48.38565594651876]}},{"type":"Feature","properties":{"marker-color":"#7e7e7e","marker-size":"medium","marker-symbol":"park","Name":"Shi Shi Beach"},"geometry":{"type":"Point","coordinates":[-124.67954635620117,48.266969382806984]}},{"type":"Feature","properties":{"marker-color":"#7e7e7e","marker-size":"medium","marker-symbol":"park2","Name":"Cape Alva"},"geometry":{"type":"Point","coordinates":[-124.70396518707275,48.24039511427531]}},{"type":"Feature","properties":{"marker-color":"#7e7e7e","marker-size":"medium","marker-symbol":"park2","Name":"Rialto Beach"},"geometry":{"type":"Point","coordinates":[-124.63817596435547,47.92439491504756]}},{"type":"Feature","properties":{"marker-color":"#7e7e7e","marker-size":"medium","marker-symbol":"city","Name":"La Push"},"geometry":{"type":"Point","coordinates":[-124.62856292724608,47.902764356325086]}},{"type":"Feature","properties":{"marker-color":"#7e7e7e","marker-size":"medium","marker-symbol":"park","Name":"Destruction Island Viewpoint"},"geometry":{"type":"Point","coordinates":[-124.40746307373047,47.68919695228656]}},{"type":"Feature","properties":{"marker-color":"#7e7e7e","marker-size":"medium","marker-symbol":"city","Name":"Kalaoch"},"geometry":{"type":"Point","coordinates":[-124.36832427978517,47.59551406038282]}},{"type":"Feature","properties":{"marker-color":"#7e7e7e","marker-size":"medium","marker-symbol":"park2","Name":"South Beach"},"geometry":{"type":"Point","coordinates":[-124.35733795166016,47.56077405523746]}},{"type":"Feature","properties":{"marker-color":"#7e7e7e","marker-size":"medium","marker-symbol":"park","Name":"Pacific Beach State Park"},"geometry":{"type":"Point","coordinates":[-124.21966552734376,47.2496400077265]}},{"type":"Feature","properties":{"marker-color":"#7e7e7e","marker-size":"medium","marker-symbol":"park","Name":"Westport Light State Park"},"geometry":{"type":"Point","coordinates":[-124.12696838378908,46.89375085066505]}},{"type":"Feature","properties":{"marker-color":"#7e7e7e","marker-size":"medium","marker-symbol":"museum","Name":"Westport Maritime Museum"},"geometry":{"type":"Point","coordinates":[-124.11563873291014,46.91014177287571]}},{"type":"Feature","properties":{"marker-color":"#7e7e7e","marker-size":"medium","marker-symbol":"park","Name":"Cape Disappointment State Park"},"geometry":{"type":"Point","coordinates":[-124.06087875366211,46.283376780187254]}},{"type":"Feature","properties":{"marker-color":"#7e7e7e","marker-size":"medium","marker-symbol":"city","Name":"Langley"},"geometry":{"type":"Point","coordinates":[-122.4100112915039,48.039528693690556]}}]}